No.,Gh id,Lon,Lat,Elev,Sname,ELID,Year,Month,1,2,3,4,5,6,7,8,9,10,11,12,13,14,15,16,17,18,19,20,21,22,23,24,25,26,27,28,29,30,31
1,SHADDI12,38.79871,8.981081,2354,AABOLE,TMPMAX,2021,8,xx,xx,xx,21.4,x,x,21.6,21.6,xx,xx,xx,xx,xx,xx,xx,23.0,22.0,24.0,24.0,,21.5,19.0,21.0,19.2,23.6,22.5,xx,xx,23.0,22.0,23.9
2,GGARBA12,37.55783,6.057167,1207,Arba Minch,TMPMAX,2021,8,26.0,26.0,28.2,30.8,29.0,21.5,27.7,31.1,28.5,29.0,29.5,29.0,30.3,30.5,28.0,28.0,29.4,29.0,31.5,30.3,31.5,31.4,32.4,29.3,32.1,32.4,32.5,33.5,28.5,32.0,32.7
3,SIAWAS32,38.483056,7.065,1694,Awassa,TMPMAX,2021,8,23.5,22.0,24.8,26.0,25.2,26.0,25.4,27.2,25.0,24.2,26.0,24.8,27.0,25.0,24.2,24.6,26.0,25.0,27.0,25.4,27.0,27.6,27.0,24.8,27.0,26.4,27.0,27.4,27.6,28.4,26.4
4,GOBAHI12,37.385,11.595,1800,Bahir Dar Met,TMPMAX,2021,8,26.0,25.0,25.4,24,26,25,26.2,25.5,24.0,25.0,24.5,26.0,27.0,27.0,26.2,25.0,27.2,26.4,27.0,27.5,28.0,26.0,26.5,27.0,26.0,26.5,27.0,26.5,27.5,26.0,27.0
5,WOCOMB32,39.717633,11.083899,1857,Combolcha,TMPMAX,2021,8,27.6,27.8,24.8,27.2,27.5,28,26,27.6,27.0,27.6,28.6,27.2,28.1,29.0,29.1,27.5,26.5,28.5,28.5,28.4,27.8,26.2,27.3,24.0,27.6,27.6,25.5,28.4,29.6,30.2,28.5
6,GODEBR12,37.7392,10.3257,2446,DEBEREMARKOS,TMPMAX,2021,8,18.0,18,16.2,21.6,18.4,21.4,20.0,20.0,20.0,20.0,20.6,21.0,22.0,22.0,21.0,23.0,26.5,23.0,20.0,19.4,19.4,20.4,20.0,18.4,22.0,20.4,17.6,21.0,20.8,23.0,23.0
7,SHDEBR42,38.95,8.733333,1900,DEBREZEIT(AF),TMPMAX,2021,8,,,,xx,,xx,,xx,xx,xx,,,,,xx,xx,xx,xx,xx,,,,xx,,xx,xx,xx,xx,xx,xx,xx
8,HADIRE12,42.5333,9.9667,1180,Dire Dawa,TMPMAX,2021,8,30.0,32.0,28.8,33.0,32.8,34.4,33.0,28.8,32.6,35.2,34.6,33.0,32.5,33.4,31.6,33.6,33.4,36.0,34.4,34.6,35.2,31.5,35.0,29.4,33.8,34.0,34.0,35.4,36.4,37.2,37.0
9,HAGODE22,43.58,5.9,290,Gode,TMPMAX,2021,8,33.8,36.4,38.6,38.8,38.4,37.2,38.0,38.8,38.4,38.8,38.6,38.2,38.8,38.5,38.1,37.8,37.6,38.0,38.6,40.2,40.4,39.6,40.4,39.2,39.6,39.2,39.5,39.4,39.6,39.8,39.0
10,GNGOND12,37.4319,12.52115,1973,Gondar A.P.,TMPMAX,2021,8,21.0,23.0,23.5,25.0,25.0,25.5,24.5,25.0,22.5,26.0,23.5,24.0,28.0,27.0,25.0,25.0,25.0,27.5,25.0,25.0,25.0,26.0,26.5,24.5,27.5,24.5,24.0,27.5,26.0,25.0,26.5
11,ILGORE12,35.533333,8.1333,2033,Gore,TMPMAX,2021,8,22.0,21.5,22.5,23.8,21.0,23.7,23,23.5,22.5,24.0,20.0,21.5,24.5,23.5,21.2,22.0,24.5,23.0,22.2,22.5,21.5,19.0,22.0,22.0,24.5,22.5,23.5,25.5,22.9,24.0,24.5
12,KFJIMM12,36.81667,7.666667,1718,JIMMA,TMPMAX,2021,8,25.3,22.0,25.0,26.6,26.8,25.6,25.0,26.6,22.8,25.2,22.6,23.8,24.6,27.0,25.0,25.4,27.0,28.0,24.8,25.0,25.4,22.4,25.8,24.8,26.8,25.0,25.4,27.2,27.0,26.8,28.0
13,TIMEKE12,39.5312,13.47051,2257,Mekele,TMPMAX,2021,8,,,,,,,,,,,,,,,,,,,,,,,,,,,,,,,
14,SHMETE12,39.919,8.858667,944,Metehara (NMSA),TMPMAX,2021,8,32.8,32.6,30.8,33.6,34.0,33.4,32.4,33.7,31.0,32.0,33.2,32.8,33.0,33.8,33.4,34.0,31.4,33.0,33.2,33.0,23.0,29.8,33.0,32.8,33.2,34.0,32.2,35.4,32.8,34.0,34.6
15,SINEGH22,39.566667,5.416667,1544,Negele,TMPMAX,2021,8,21.5,22.5,22.7,25.4,24.1,24.2,25.4,25.1,26.9,27.6,26.8,25.2,26.9,24.8,23.5,23.3,23.4,23.3,27.6,27.2,28.4,28.2,27.8,27.2,27.4,27.0,28.7,29.2,29.4,27.5,28.2
16,WENEKE12,36.463333,9.083333,2080,Nekemte,TMPMAX,2021,8,21.5,20.0,20.0,22.5,19.6,23.2,22.0,21.0,20.4,23.0,22.7,20.7,22.0,24.0,21.7,21.0,22.0,22.5,21.0,21.6,20.6,21.4,22.5,21.2,24.6,24.4,22.0,23.2,22.8,21.8,23.6
17,BAROBE22,39.6221,7.8757,2441,Robe,TMPMAX,2021,8,21.0,22,22.4,21.8,22.4,25.2,24,25,22.4,23.8,23.8,22.2,22.0,23.4,21.5,21.7,22.0,23.0,23.8,xx,xx,22.8,22.4,21.4,21.8,22.2,23.4,22.8,xx,23.8,24.5
18,TIABAL11,39.76,13.34,1441,ABEALA,TMPMAX,2021,8,,,,,,,,,,,,,,,,,,,,,,,,,,,,,,,
19,ILABOB11,34.43,7.85,530,ABOBO,TMPMAX,2021,8,33.4,32.2,33.2,34.4,29.8,34.0,33.2,31.4,31.8,33.2,33.4,33.6,35.4,33.0,29.2,31.2,33.2,33.2,32.2,,31.8,33.6,33.8,32.8,34.4,33.2,34.4,34.2,33.0,,
20,ARABOM11,39.833,8.4667,1630,Abomsa,TMPMAX,2021,8,28.0,28.0,25.5,28.8,27.0,29.5,27.5,29.2,27.5,27.5,28.5,28.0,27.5,28.5,28.0,28.0,26.5,28.5,29.0,28.5,,,,,,,,,,,
21,SHADDI21,38.7475,9.01891,2386,AAO,TMPMAX,2021,8,22.0,20.2,16.0,22.0,20.8,21.5,17.0, ,22.5,22.6,21.8,21.0,23.5,24.6,23.8,21.8,23.5,24.8,21.6,22.0,21.8,22.5,21.0,20.5,22.0,23.4,21.0,23.5,22.6,22.4,23.0
22,ARADEL11,39.90292,7.7505,2466,ADELLE,TMPMAX,2021,8,20.4,21.3,19.8,21.7,22.4,23.4,22.8,23.4,22.7,22.4,21.8,21.8,22.4,22.0,21.5,21.8,21.7,23.2,22.8,22.6,22.5,20.5,20.4,20.8,22.4,21.4,23.2,23.8,23.7,24.5,24.0
23,GOADET11,37.49312,11.2745,2179,ADET,TMPMAX,2021,8,21.5,20.0,19.2,22.5,22.8,22,23.5,23.2,21.2,24.0,24.2,23.8,25.0,23.8,23.8,23.0,25.0,24.8,24.0,22.5,22.8,23.5,23.8,22.0,25.8,24.2,20.0,25.0,24.8,23.8,25.5
24,TIADWA11,38.877825,14.180802,1911,ADEWA,TMPMAX,2021,8,,,,,,,,,,,,,,,,,,,,,,,,,,,,,,,
25,TIADIG11,39.44683,14.27814,2497,ADIGRAT,TMPMAX,2021,8,,,,,,,,,,,,,,,,,,,,,,,,,,,,,,,
26,TIMEKE21,39.4668,13.5244,2000,AIDERMQO,TMPMAX,2021,8,,,,,,,,,,,,,,,,,,,,,,,,,,,,,,,
27,HAALEM11,42.0333,9.4,2020,ALEMAYA,TMPMAX,2021,8,21.8,20.8,22.6,22.8,25.2,26.6,22.8,24.6,24.4,24.6,22.4,22.6,22.4,22.6,21.0,24.8,23.4,25.2,25.2,23.4,24.6,23.6,23.0,22.4,24.2,22.8,25.2,25.6,26.4,24.8,25.2
28,SHALEM11,39.033333,10.033333,2280,Alemketema,TMPMAX,2021,8,21.0,20.5,18,22,19.5,22,21.0,21.5,21.0,22,20.5,21.5,23.0,25.0,22.5,21.0,19.5,23.6,22.0,21.5,20.0,22.5,22.0,18.0,24.0,22.5,21.0,22.0,24.5,22.0,21.5
29,WEALEM13,35.233333,8.9,1630,Alemtefere,TMPMAX,2021,8,,,,,,,,,,,,,,,,,,,,,,,,,,,,,,,
30,ILALGE11,35.666667,8.533333,1880,ALGIE,TMPMAX,2021,8,23.0,20.0,22.0,25,23.0,23.0,24.0,22.8,21.8,24.0,20.8,23.0,23.0,25.0,22.0,21.8,25.0,22.8,23.0,22.0,23,21.8,23.0,23.6,25.0,23.0,22.8,25.4,23,23.8,23.6
31,WEAYIR11,35.55,9.1,1555,AIRA,TMPMAX,2021,8,23.5,24.4,24,25.6,25,26.2,25.0,25.2,24.2,25.5,24,24.4,26.5,26.6,24.0,24.2,26.5,25.4,23.0,23.2,24.0,24.2,25.2,24.4,26.4,24.5,25.8,28.2,25.6,25.5,27.2
32,WOAMBA21,39.216667,11.203035,2990,AMBAMARIAM,TMPMAX,2021,8,,,,,,,,,,,21,21.6,22.6,23.0,21.0,20.0,21.4,22.6,22.0,22.0,21.6,22.6,21.0,20.2,23.0,22.6,22.0,23.0,22.4,21.4,21.8
33,SHAMBO11,37.83967,8.984667,2068,AMBO,TMPMAX,2021,8,23.6,20.5,22,22.6,24.5,25.1,22.8,24.4,24.6,25.0,24.6,22.6,25.2,25.6,23.6,22.2,24.0,55.0,23.6,24.6,23.0,22.6,22.0,23.2,26.0,25.6,23.0,25.6,25.5,25.6,26.5
34,WOAMDE21,38.714259,12.427577,2553,AMDEWORK,TMPMAX,2021,8,,,,,,,,,,,,,,,,,,,,,,,,,,,,,,,
35,KFAMAN11,35.56667,6.95,1192,AMAN,TMPMAX,2021,8,28.0,24.8,27.6,27.0,26.4,28.0,27.6,25.2,26.0,24.8,22.0,28.0,28.0,27.6,23.8,26.0,27.6,28.0,26.4,24.0,26.0,24.8,25.0,26.4,27.6,25.0,29.0,29.8,25.0,27.0,27.6
36,ARROBE21,39.6221,7.8757,2441,ARISE ROBE,TMPMAX,2021,8,21.5,21.0,20.0,21.5,21.5,22.0,22.5,22,22.0,22.0,22.0,22.5,22.0,23.0,22.0,21.5,22.0,24.4,22.0,22.5,21.5,19.5,19.5,25.0,22.0,22.5,21.7,23.0,23.5,23.5,23.0
37,WEARJO21,36.5,8.75,2565,AREJO,TMPMAX,2021,8,18.5,18.0,18.4,19,18.6,19.2,19.4,18.8,18.4,19,18.5,18.8,19.0,19.2,18.6,19.4,18.6,18.8,19.2,19.6,18.6,19.4,19.2,18.6,19.6,18.6,19.4,19.0,18.6,19.2,19.0
38,WOASSA11,41.5298,11.53,430,Asaita,TMPMAX,2021,8,,,,,,,,,,,,,,,,,,,,,,,,,,,,,,,
39,WEASSO11,34.516667,10,1600,ASSOSSA,TMPMAX,2021,8,23.0,22.0,23.4,24.4,25,24.9,25.0,22.0,24.5,24.0,23.5,24.5,25.5,24.0,24.6,24.0,26.0,24.0,24.5,,23.6,24.0,24.5,25.5,25.0,24.0,26.0,26.0,23.0,22.8,22.8
40,TIATSE21,39.741419,13.8832,2711,ATSEBI,TMPMAX,2021,8,,,,,,,,,,,,,,,,,,,,,,,,,,,,,,,
41,HAAWAS31,40.158861,9.141056,826,AWASH ARBA,TMPMAX,2021,8,34.0,34.5,33.5,34.6,33.0,35.0,34.0,36.0,34.0,34.5,35.0,34.5,34.0,36.0,35.5,33.6,34.6,36.0,36.0,36.6,37.0,33.0,36.0,35.0,37.0,36.5,32.0,39.0,36.5,38.0,38.0
42,TIAXUM31,37.82,13.99,1114,Axum,TMPMAX,2021,8,,,,,,,,,,,,,,,,,,,,,,,,,,,,,,,
43,GNAYKE11,37.0587,12.53968,2254,AYKEL,TMPMAX,2021,8,19.0,19.9,19.1,21.1,21.0,20.8,19.6,19.2,19.5,21.8,18.4,19.9,23.0,21.0,20.8,20.9,22.4,23.5,22.0,21.0,21.4,22.2,22.8,20.3,21.6,20.3,19.4,22.5,,,
44,HAAISH21,42.57758,10.7568,721,AYSHA,TMPMAX,2021,8,38.5,39.5,40.0,40.0,38.0,40.0,40.0,40.5,40.5,40.5,41.5,41.0,40.0,41.0,42.0,40.0,40.0,41.0,42.0,42.0,41.0,41.0,42.0,42.0,41.0,42.0,39.0,41.0,42.0,42.0,43.8
45,GOAYEH21,36.793,10.661,1771,AYEHU,TMPMAX,2021,8,22.5,23,23,25,25.1,25.0,25.2,23.8,23,25,24,23.2,24.5,24.6,24.0,24.0,23.0,24.0,23.0,23.6,,,,,,,,,,,
46,WOBATI21,40.01539,11.19667,1660,Bati,TMPMAX,2021,8,27.5,28,26.5,28.0,27.5,28.2,27.2,27.8,27.8,28.0,29.0,28.0,28.0,29.0,29.4,28.0,27.5,29.6,29.2,29.0,28.5,27.6,28.6,26.0,28.0,28.6,26.5,28.5,30.5,30.0,29.5
47,ILBEDE11,36.333333,8.45,2011,Bedelle,TMPMAX,2021,8,23.0,22.2,23.4,23.6,22.5,25.0,23.0,23.5,22.0,23.5,23.0,22.0,25.0,25.0,23.0,22.5,25.0,25.0,23.5,22.0,22.8,19.5,22.8,21.6,25.6,24.0,23.6,27.0,25.0,24.3,26.0
48,WEBEGI21,34.533333,9.333333,1650,BEGI,TMPMAX,2021,8,,,,,,,,,,,25.4,25.0,25.2,26.0,25.5,24.6,25.0,24.6,,,27.5,28.0,28.5,28.0,29.0,25,27.3,27.0,27.5,27.0,27.2
49,SIBILL11,38.08333,6.81667,1361,BLATE,TMPMAX,2021,8,26.2,24.0,27.3,27.8,28.2,28.6,27.6,29.2,27.2,27.1,28.2,26.0,27.4,27.2,27.2,26.2,28.1,27.4,29.3,29.2,30.0,30.2,30.3,24.8,29.6,29.4,30.2,30.2,28.1,31.0,30.8
50,SIBORE31,38.61667,6.35,2712,BORE,TMPMAX,2021,8,12.8,12.6,15.0,16.4,17.4,18.2,18.0,19.9,18.2,18.8,17.0,18.0,19.0,15.0,15.6,15.0,16.0,17.4,19.4,17.6,18.4,17.6,19.0,17.4,17.0,17.6,18.2,20.0,18.2,19.0,20.0
51,SHBUI_11,38.554444,8.330833,2054,Bui,TMPMAX,2021,8,20.5,25,23.0,26.5,22.0,26.5,27.0,26.5,24.0,26.0,26.5,26.2,26.5,27.5,26.5,25.5,26.0,26.5,27.5,28.0,26.0,26.0,24.6,24.0,27.0,27,27.5,29.0,26.7,27.0,26.0
52,GOBULL11,36.082,10.5959,1659,BULLEN,TMPMAX,2021,8,,,,,,,,,,,,,,,,,,,,,,,,,,,,,,,
53,ILBURE11,35.1,8.2333,1750,BURE,TMPMAX,2021,8,24.5,21.5,24,24.5,21.5,24.5,23.5,23.5,24.0,24.0,,,,,,,,,,,22.5,33.5,25.0,24.5,24.5,24.0,24.5,25.5,22.5,24.0,24.0
54,SIBURJ21,37.86797,5.48447,1815,BURJI,TMPMAX,2021,8,18.6,19.5,22,24,22,26,25.9,25,25,25.0,23.5,24.0,25.0,23.9,21.6,21.0,22.5,22.5,26.3,26.5,25.5,27.4,27.0,24.7,26.5,26.0,27.5,29.0,25.0,28.0,25.6
55,GOCHAG11,36.499,10.974,1614,CHAGINI,TMPMAX,2021,8,24.4,24,24,24.6,24.4,25.2,25.0,23.0,23.4,25.4,23.5,24.6,26.2,25.0,25.0,24.0,26.6,25.0,26.0,25.2,24.2,25.6,25.4,24.2,25.6,25.0,23.8,26.6,26.4,25.8,26.4
56,WOCHEF21,39.766667,10.983333,1400,CHEFA,TMPMAX,2021,8,30.4,29.8,24.2,29.8,29,30.6,28,30.2,28.4,30.2,31.0,30.4,31.0,31.2,31.0,30.2,28.4,32.0,31.2,31.2,29.8,28.8,31.2,26.2,30.2,30.2,30.6,30.4,31.4,32.2,31.6
57,TICHER11,39.766867,12.542294,1781,CHERCHER,TMPMAX,2021,8,,,,,,,,,,,,,,,,,,,,,,,,,,,,,,,
58,WECHEW11,36.16,8.92,1272,CHEWKA,TMPMAX,2021,8,25.0,26.4,26.3,29.5,28,29.4,28.0,27.2,28,28.4,28.2,26.2,30.0,30.1,28.2,26.0,28.4,29.0,26.0,25.0,25.3,27.3,28.4,28.1,31.0,28.3,27.1,30.0,29.0,29.3,31.0
59,WOCHIF21,40.02,11.61,926,CHIFRA,TMPMAX,2021,8,26.5,30.0,31.5,33.0,33.5,33.0,34.0,38.5,35.0,33.5,34.0,34.5,34.0,35,35.5,34.0,32.5,32.5,35.0,34.8,34.5,33.5,34.5,33.5,34.0,33.5,31.5,34.0,30.6,36.5,36.5
60,KFCHIR11,36.23333,7.73333,2095,CHIRA,TMPMAX,2021,8,20.2,19.0,22.5,22.5,21.0,22.0,20.0,21.6,25.0,21.2,21.5,22.8,24.5,22.5,19.5,22.5,24.0,21.0,17.8,22.0,21.5,18.2,20.2,21.0,23.5,21.5,23.2,23.2,23.6,22.0,24.5
61,SHDEBR11,39.5,9.633333,2750,D/BREHAN,TMPMAX,2021,8,17.4,18,16.8,18,17.2,18.2,18.8,19.0,17.8,19.8,21.0,19.8,20.0,21.2,19.2,19.4,18.2,21.0,17.8,19.8,18.2,18.4,17.2,17.4,19.8,18.8,17.0,20.8,19.8,18.4,20.4
62,GNDEBR31,37.9954,11.8666,2612,D/TABOR,TMPMAX,2021,8,19.0,18.6,18.8,19.2,19.6,20.0,20.8,20.0,19.5,20.8,20.6,20.4,21.0,22.4,21.8,22.0,21.0,21.6,22.0,21.2,21.0,20.4,20.0,19.6,20.6,21.0,20.6,21.8,21.6,21.4,23.2
63,GODANG11,36.846,11.4337,2116,DANGLA,TMPMAX,2021,8,19.2,19.8,20.2,21.2,23.2,22.4,21.4,20.4,21.0,23.6,22.0,20.8,24.4,23.0,21.6,22,23.6,23.8,23.4,23.0,22.2,23.4,22.0,23.0,23.8,24.0,21.3,24.8,24.2,23.2,24.0
64,GNDEBA11,37.8979,13.14213,2836,DEBARK,TMPMAX,2021,8,18.0,18.5,16.0,16.5,17,17.0,18.0,17.0,17.0,18.5,18.0,17.5,19.5,19.0,17.5,17.5,19.0,2.0,19.0,17.5,17.5,17.0,19.0,17.0,22.0,18.5,17.5,19.5,19.0,17.5,19.5
65,,,,,DADISA,TMPMAX,2021,8,27.5,26.8,27.5,30.0,28.5,29.5,27.5,26.8,26.5,29,27.0,25.0,28.5,29.8,28.8,26.0,28.5,28.8,25.0,,26.0,27.5,28.5,28.0,30.0,29.5,,,,,
66,WODALI13,40.32,10.62,650,DALIFAGI,TMPMAX,2021,8,31.2,30.2,29.1,33.1,36.1,36.0,35.0,38.2,37.0,,,,,,,,,,,,,,,,,,,,,,
67,GODEBR21,38.1623,10.6506,2508,DEBRAWREK,TMPMAX,2021,8,17.0,18.6,16.4,19.8,19.0,20.8,20.8,20.6,,21.4,21.4,21.2,23.0,23.4,20.2,20.2,20.0,21.8,20.4,19.8,19.6,20.0,19.0,17.8,22.0,21.0,19.2,21.0,21.8,21.1,21.8
68,HADEGA11,43.55,8.216667,1070,DEGAHABUR,TMPMAX,2021,8,,,,,,,,,,,,,,,,,,,,,,,,,,,,,,,
69,BADELL11,39.833333,6.416667,1313,DOLOMENA,TMPMAX,2021,8,21,24,24.6,27.5,26.2,28.2,26.2,29.4,29.6,30.8,30.0,28.6,28.4,27.6,25.8,24.8,29.6,27.4,29.2,30.4,30.4,30.6,31.2,29.8,30.8,29.6,31.4,32.4,31.4,31.0,
70,WODUBI21,41.01,11.723,376,DUBTI,TMPMAX,2021,8,36.5,37.5,35,38,35,38.0,37.0,38,39.5,35.0,39.0,38.0,39.0,38.5,38.0,32.0,36.0,39.0,38.5,39.8,38.0,34.5,39.0,35.0,39.0,38.0,35.0,40.0,39.5,40.0,39.5
71,SIDILL11,38.3,6.3667,1579,DILLA,TMPMAX,2021,8,24.5,21.8,26,26.5,25.5,27.5,26.0,27.2,25.0,25.5,25.0,25.5,26.0,27.0,24.5,23.0,25.0,25.2,27.5,26.5,,,,,,,,,,,
72,WEDEMB21,34.8,8.516667,1850,DEMBIDOLO,TMPMAX,2021,8,21.2,22,21.2,21.8,22.0,24.0,23.5,21.2,23.5,23.2,,,,,,,, ,,,,,,,,,,,,,
73,SHEJAJ31,37.316667,8.99,1732,Ejaji,TMPMAX,2021,8,25.5,23.5,24.4,26.0,23.6,26.5,23.4,24.8,23.5,26.0,24.7,23.5,22.6,26.6,24.9,23.9,26.1,25.6,25.7,25.6,26.0,21.6,23.5,20.7,26.2,25,25.1,26.6,26.5,25.5,26.2
74,WOELID31,41.917,12.067,660,ELIDAR,TMPMAX,2021,8,38.6,39.6,36.2,40,36.4,37.6,40.4,41.6,44,,,,,,,,,,,,40.2,39.6,40.4,37.0,41.8,39.6,38.4,41.8,42.6,42.8,39.6
75,SHENEW11,39.15,9.83,2561,Enewari,TMPMAX,2021,8,16,17,15,17.0,16.2,17.2,18.8,17.2,17.0,18.2,18.4,17.2,20.6,20.4,20.6,18.4,18.8,19.6,17.8,18.6,17.0,17.8,17.4,17.8,19.6,18.6,17.0,18.6,18.4,18.6,19.2
76,HAERER21,41.379217,9.561,1088,ERROR,TMPMAX,2021,8,,,,,,,,,,,,,,,,,,,,,,,,,,,,,,,
77,SHFICH11,38.7333,9.7667,2784,Fiche,TMPMAX,2021,8,16.8,18.0,15.0,19.0,17.7,19.8,19.7,18.0,18.0,18.2,19.5,19.0,20.0,20.0,19.0,18.0,18.2,20.2,18.0,18.2,18.2,19.5,17.0,17.0,19.5,19.0,16.5,19.5,20.0,20.0,20.2
78,HAFICK14,42.297778,8.139444,,FIQ,TMPMAX,2021,8,,,,,,,,,,,,,,,,,,,,,,,,,,,,,,,
79,ILFUGN11,34.417,7.65,448,FUGNUIDO,TMPMAX,2021,8,32.0,32.8,32.0,33.5,34.5,32.5,34.0,30.5,33.5,34.0,,,,,,,,,,,,,,,,,,,,,
80,ILGAMB21,34.583333,8.25,500,GAMBELLA,TMPMAX,2021,8,32.8,32.2,32.8,34.0,32.0,33.4,32.8,29.6,33.4,33.6,30.8,32.6,32.4,31.8,30.6,32.4,32.4,31.2,33.0,,31.6,30.8,33.4,33.4,34.4,33.0,34.4,34.6,31.2,31.0,32.2
81,ILGATI11,36.2,7.98333,2358,Gatira,TMPMAX,2021,8,20.0,19.0,19.0,20.3,18.2,21.0,20.0,19.2,18.3,20.3,22.0,20.0,23.0,21.0,19.2,20.0,22.0,22.0,19.0,19.0,20.0,16.0,20.0,21.8,21.0,20.0,21.0,23.0,22.0,21.0,22.0
82,HAGELE11,40.525,8.80933,1739,Gelemso,TMPMAX,2021,8,,25.0,24,21,26.8,27.2,26,27.4,26.2,27.2,25.8,25.2,25.8,26.2,25.0,26.6,26.5,28.2,26.8,27.0,,,,,,,,,,,
83,HAGEWA11,40.633,10.15,568,Gewane,TMPMAX,2021,8,32.8,34.8,32.8,35.2,35.2,36.4,34,35.6,36,36,22.8,37.0,35.2,35.2,37.4,34.4,37.0,36.0,36.0,37.0,36.0,32.6,37.0,34.6,36.4,36.2,34.8,37.8,36.8,37.0,36.4
84,SHWOLI11,37.983333,8.55,2058,GHION,TMPMAX,2021,8,22.8,21.2,20.3,23.3,20.8,24.2,22.2,24.2,20.6,22.4,22.8,22.2,25.2,24.2,21.2,24.0,23.8,24.2,23.2,23.3,22.4,21.6,20.8,21.0,25.2,25,21.8,25.4,24.3,21.6,25.4
85,WEGIDA11,36.61667,9.86667,1850,GIDAAYANA,TMPMAX,2021,8,20.0,21.0,29.0,20.5,21.4,22.2,22.5,21.5,21.0,22.4,23.8,23.5,22.8,23.0,22.5,23.5,22.0,23.0,23.8,22.0,21.0,22.0,22.0,21.5,23.5,22.0,21.2,22.0,22.5,22.0,24.8
86,WEGIMB11,35.783333,9.166667,1970,Gimbi,TMPMAX,2021,8,18.3,22.6,23,23.8,23.0,23.3,20.7,22.6,23.3,24.6,20.8,22.5,24.3,24.6,22.5,23.1,24.6,24.4,22.0,23.0,21.6,26.0,25.4,22.5,25.0,22.6,24.3,25.0,24.0,24.6,24.5
87,BAGINI31,40.7,7.133333,1750,GINIR,TMPMAX,2021,8,22.0,22.4,22.0,23,24.0,25.0,25.0,26,21.6,26.4,25.0,25.0,25.4,24.8,23.0,24.6,23.0,24.0,26.0,26.4,26.4,26.0,25.4,25.0,26.4,25.0,26.2,27.0,27.2,26.4,27.0
88,ARGOLE11,40.125,8.2562,1372,GOLOLCHA,TMPMAX,2021,8,28.0,28.2,29.2,29.6,30.2,31.2,30.6,31.6,32.6,31.5,30.8,30.6,31.0,31.2,31.0,30.8,30.8,31.5,30.6,30.8,31.2,30.8,29.0,28.0,29.2,31.3,31.2,31.5,32.0,32.2,30.6
89,SHGUND11,38.71667,10.1833,2480,GUNDOMESKEL,TMPMAX,2021,8,17.7,18.0,18.5,19,19.5,19.3,20.6,20.3,19.5,18.8,18.8,20.3,21.2,19.8,20.6,21.6,19.5,21.0,20.0,19.6,18.8,19.0,19.5,18.7,21.8,22.2,18.5,21.6,22.8,21.0,21.0
90,SIHAGE11,38.233333,5.65,1861,HAGEREMARIAM,TMPMAX,2021,8,17.3,17.0,19.5,22.5,21,22.5,23.4,24.6,24.5,25.5,22.4,22.7,24.5,23.2,20.3,19.0,19.7,19.7,21.3,24.5,25.5,25.0,25.0,24.2,25.3,23.5,26.6,26.5,24.5,25.5,26.0
91,HAHARA31,42.08333,9.3,1977,HARER,TMPMAX,2021,8,23.0,20.0,23.1,23.2,25.1,23.6,24.0,23.5,22.8,24.0,24.0,22.6,25.6,24.8,21.4,24.8,23.4,25.4,25.3,25.6,25.6,26.0,26.0,25.5,25.0,25.4,26.1,26.0,26.2,25.6,25.4
92,SHHOSA11,37.85383,7.5673,2307,HOSSAINA,TMPMAX,2021,8,20.5,18.0,20.5,21.5,20.5,21.5,20.5,21.5,19.4,21.0,21.5,18.8,23.0,22.0,19.4,21.0,22.0,22.0,20.0,21.2,21.5,20.5,20.0,19.0,23.0,22,20.6,23.0,22.0,21.5,22.6
93,GNHUME11,36.52208,14.10452,760,HUMERA,TMPMAX,2021,8,,,,,,,,,,,,,,,,,,,,,,,,,,,,,,,
94,SHIMDI31,37.936,8.1183,2082,Indiber,TMPMAX,2021,8,21.2,20.6,20.6,21.6,21.3,22.0,21.7,23.0,21.8,22.1,21.2,21.0,22.0,22.5,21.6,21.2,23.3,21.8,22.7,21.8,21.6,19.6,21.3,21.0,23.0,22.5,21.0,24.1,23.0,22.1,24.3
95,BAJARA14,40.766667,7.45,1960,Jara,TMPMAX,2021,8,24.2,23.8,22.4,24.0,25,26,26.4,26.8,25.4,25.0,24.0,25.0,23.8,25.2,24.0,25.2,26.0,26.2,25.0,25.2,25.0,23.2,23.0,27.0,24.2,24.4,25.0,26.0,26.0,25.2,25.6
96,HAJIJI11,42.783333,9.333333,1775,JIJIGA,TMPMAX,2021,8,26.0,26.0,27.5,26.8,29.0,28.8,27,27.0,28.0,29.5,29.5,28.6,28.6,28.0,25.0,27.6,26.4,28.0,27.8,27.6,28.6,xx,29.6,27.5,27.0,29.5,29.7,30.0,30.0,29.5,29.8
97,GGJINK11,36.55,5.76667,1373,Jinka,TMPMAX,2021,8,26.8,24.0,27.5,28.0,27.0,29.5,28.0,28,25.0,26.0,23.5,26.0,25.5,27.0,24.5,26.0,28.0,27.0,28.5,25.0,27.0,27.0,26.5,27.0,27.5,27.6,28.5,29.5,26.5,29.5,28.0
98,SHKACH31,37.86,9.583333,2520,KACHISE,TMPMAX,2021,8,16.2,16,14.8,18.4,26.7,19.5,19.6,17.2,16.8,19,18.0,17.3,20.0,19.3,18.6,16.8,20.0,20.0,18.2,18.0,17.2,18.4,17.4,17,19.0,19.4,16.3,19.2,18.8,19.3,20.4
99,SIKIBR21,38.966667,5.866667,1680,KIBREMENGIST,TMPMAX,2021,8,,,,,,,,,,,,,,,,,,,,,,,,,,,,,,,
100,ARKOFE21,38.8,7.0667,2620,KOFELLE,TMPMAX,2021,8,,,,,,,,,,,,,,,,,,,,,,,,,,,,,,,
101,GGKONS11,37.43333,5.333333,1431,KONSO,TMPMAX,2021,8,24.5,24.5,26.5,27.5,26.5,28.5,28.5,29.5,26.5,30,27.5,27.5,28.5,27.5,26.4,25.2,26.5,26.5,29.5,28.6,30.3,29.6,30.2,29.0,30.5,30.5,31.5,31.5,28.5,31.0,29.0
102,ARKULU11,34.3535,10.57693,723,KULUMSA,TMPMAX,2021,8,21.8,19.8,20.0,22.6,21.2,22,21.0,23.0,21.5,21.5,21.0,21.0,22.5,21.0,21.0,21.0,21.4,22.5,21.0,20.2,21.5,19.5,20.0,20.6,20.2,21,22.0,23.0,22.5,23.5,23.4
103,WEKAMA21,35.86,9.50622,1317,KAMASHI,TMPMAX,2021,8,,,,,,,,,,,,,,,,,,,,,,,,,,,,,,,
104,HAKEBR11,44.3,6.733333,505,Kibridahar,TMPMAX,2021,8,32.4,37.0,35.6,33.6,33.4,35.0,35.4,35.0,35.6,35.6,,,,,,,,,,,38.0,37.9,38.8,39.0,38.9,39.0,39.0,38.8,38.6,39.0,39.4
105,WOLALI41,39.039839,12.038995,2487,LALIBELA,TMPMAX,2021,8,,,,,,,,,,,,,,,,,,,,,,,,,,,,,,,
106,GOLAY_11,37.17163,10.5916,1707,LAIBER,TMPMAX,2021,8,23.2,23.4,25.4,25.4,25.6,25.8,25.2,23.4,23,25.7,,,,,,,,,,,,,,,,,,,,,
107,ILJIKA21,33.95,8.33,419,LARE,TMPMAX,2021,8,32.0,31.2,31.4,32.2,31.2,33.2,32.4,30.0,32.2,32.0,30.2,32.2,32.4,30.2,29.4,33.0,33.2,31.2,32.0,,31.0,30.4,33.2,32.4,34.2,33.0,34.2,34.4,32.0,32.0,32.2
108,KFLIMU11,36.95,8.06667,1766,LIMUGENET,TMPMAX,2021,8,25.6,28.0,26,26.0,24.0,24.8,23.6,24.0,26.5,25.5,26.6,24.8,25.6,26.2,26.2,27.0,26.8,27.0,24.5,25.0,24.5,23.0,24.0,24.0,26.5,26.0,25.5,27.5,27.0,27.0,27.5
109,TIMAIC21,39.5337,12.78413,2432,MAICHEW,TMPMAX,2021,8,,,,,,,,,,,,,,,,,,,,,,,,,,,,,,,
110,GOMANK41,35.25,11.283333,,MANKUSH,TMPMAX,2021,8,30.0,29.5,29.0,32,29.5,32.2,30.2,30.0,27.2,30.5,26.2,27.6,31.2,26.2,29.2,27.0,30.5,31.0,30.0,28.5,28.0,29.6,28.5,29.0,32.2,30.0,30.0,32.7,31.0,28.6,32.0
111,ILMASH11,35.4667,7.75,2282,MASHA,TMPMAX,2021,8,21.0,21.6,22.0,22.6,21,21.6,21.8,21.0,22.0,22.4,21.8,22.0,22.4,23.6,23,22.6,23.0,22.6,23.0,22.8,23.6,23.0,22.6,22.0,22.4,23.0,23.6,24.0,23.4,22.4,22.0
112,SHMEHA11,39.66025,10.3146,3084,MEHALMEDA,TMPMAX,2021,8,16.2,17.4,15.5,18,17.2,18.5,18.5,20.0,17.4,18.2,19.4,19.0,18.2,19.8,19.6,18.2,17.0,19.6,18.0,19.2,17.8,17.0,16.5,15.6,18.4,19.2,16.4,19.0,19.8,19.5,19.5
113,HAMEIS21,40.75,9.233333,1400,MEISSO,TMPMAX,2021,8,29.8,28.0,30.2,30.0,30.0,30.6,29.9,30.2,28.6,30.0,30.6,29.6,30.0,31.0,31.0,29.2,30.0,29.0,31.2,29.0,30.4,27.4,32.0,27.6,31.0,30.0,29.8,32.0,32.2,34.0,31.8
114,WOMEKA11,38.756691,10.74311,2605,MEKANSELAM,TMPMAX,2021,8,18.2,18.6,18.6,19.5,19.6,19,19.6,19.5,18.5,19.7,19.0,19.1,19.5,19.5,18.7,18.6,18.6,19.5,19.5,19.7,18.2,18.6,20.4,21.4,21.5,20.5,16.0,19.0,20.0,18.6,19.0
115,GNMETE11,36.4139,12.7746,790,METEMA,TMPMAX,2021,8,29.8,31.0,29.8,31.6,33.2,31.4,31.0,30.5,29.4,31.0,28.6,30.0,31.6,30.0,29.0,31.4,30.8,32.7,31.6,30.4,31.0,31.5,31.0,30.8,33.2,31.0,30.8,33.0,32.2,0.5,33.0
116,WOMILL51,40.77,11.42558,487,MILLE,TMPMAX,2021,8,38.0,35.0,40.0,37.0,35.0,40.0,37.0,41.0,39.0,36.0,39.0,37.0,37.0,38.0,38.0,36.0,30.0,39.0,39.0,34.0,39.0,35.5,39.0,37.0,38.0,35,37.0,40.0,39.0,40.0,39.0
117,GGMIRA21,37.77,6.28,1221,MIERAB ABAYA,TMPMAX,2021,8,25.0,25.2,27,29.0,29.2,30,29,30,28.0,29.0,29.4,29.0,30.0,29.2,27.2,27.0,29.0,28.2,30.2,30.0,31.0,31.2,31.0,29.0,30.0,30.2,31.0,30.4,28.0,31.0,31.2
118,GOMOTT11,37.89,11.074,2417,MOTTA,TMPMAX,2021,8,17,19.2,16.0,20.0,19.2,21.2,22.0,21,21,22.0,22.0,20.2,23.2,23.4,23.2,20.4,20.0,23.0,21.4,20.4,20.4,21.2,21.0,18.8,23.0,22.6,19.0,23.0,23.0,23.2,23.2
119,SIMOYA11,39.03333,3.55,1166,MOYALE,TMPMAX,2021,8,23.6,27.0,27.8,26.8,27.6,24.0,25.0,28.4,29.6,29,25.4,25.4,27.8,24.8,25.4,23.8,23.6,26.8,28.8,28.0,27.6,29.0,26.0,27.8,27.6,24.8,29.2,29.4,29.6,29.8,29.0
120,SHMAJE11,39.85,10.5,2000,MAJETE,TMPMAX,2021,8,,,,,,,,,,,30.8,30.7,31.3,30.7,30.1,29.7,30.9,32.0,31.1,32.2,31.6,29.4,30.2,27.8,31.0,30.5,30.7,30.3,30.2,32.4,33.4
121,KFMAJI31,35.59,6.17753,2367,MAJJI,TMPMAX,2021,8,21.3,21.5,21,21,21.3,21.5,20.8,21.2,21.5,21,20.8,20.5,21.0,21.3,21.5,21.0,21.4,20.8,21.0,21.2,21.5,21.7,21.9,22.3,21.5,20.8,20.5,20.7,20.9,20.0,21.3
122,TIMAY_11,38.14506,13.58914,1349,MYTSEBRI,TMPMAX,2021,8,,,,,,,,,,,,,,,,,,,,,,,,,,,,,,,
123,SHNAZE11,39.283333,8.55,1622,Nazreth,TMPMAX,2021,8,27.2,26.0,24.4,29.5,27.0,28.0,28.2,29.5,26.5,28.0,27.5,26.5,27.2,28.0,28.0,25.7,27.5,26.8,28.0,28.2,27.5,27.0,26.0,26.5,29.0,28.5,28.0,30.0,28.5,30.0,29.0
124,TINEBE11,39.28,14.1,1988,NEBELETE,TMPMAX,2021,8,,,,,,,,,,,,,,,,,,,,,,,,,,,,,,,
125,GNNEFA11,38.468,11.73022,3098,Nefasmewucha,TMPMAX,2021,8,14.5,14.0,16.5,18.5,16.5,19.5,20.5,20.5,20,16.5,,,,,,,,,,,,,,,,,,,,,
126,WENEDJ11,35.45,9.5,1800,NEJO,TMPMAX,2021,8,21.0,21.6,23,23.8,23.0,22.6,21.0,22.5,22.4,23,21.5,22.0,24.6,24.2,24.2,22.5,23.0,23.0,21.6,22.8,21.4,23.0,22.8,22.6,25.0,23.0,22.6,25.5,23.0,22.5,24.4
127,SHNURA11,39.9,8.08333,1140,NURA-ERA,TMPMAX,2021,8,30.4,30.6,27.8,31.8,29.8,32.2,29.2,33.0,30.0,30.4,31.8,29.6,30.1,33.0,29.4,30.8,30.4,32.2,30.6,30.4,30.2,27.6,30.0,22.4,32.0,31.8,30.8,32.8,30.4,32.0,32.8
128,GOPAWE11,36.410167,11.312267,1119,Pawe,TMPMAX,2021,8,26.6,27.2,25.3,29,27.4,28.6,30.2,23,25.2,28.2,24.5,27.8,29.0,26.8,27.8,26,28.8,29.0,28.2,27.6,25.9,28.2,28.0,27.1,29.2,26.5,24.8,29.6,27.4,29,29.6
129,GNQUAR11,35.886317,12.228583,648,Quara,TMPMAX,2021,8,,,,,,,,,,,,,,,,,,,,,,,,,,,,,,,
130,WOSEME11,41,11.76,590,Semera,TMPMAX,2021,8,37.0,37.4,36.4,37.2,35,39,39.9,10.8,41.6,38.2,39.0,38.2,34.5,41.4,40.0,36.2,36.0,40.4,40.0,40.2,39.2,37.2,39.4,40.8,40.0,39.6,36.8,40.2,40.5,40.0,41.6
131,TISENK11,39.56873,14.06415,2437,SENKATA,TMPMAX,2021,8,,,,,,,,,,,,,,,,,,,,,,,,,,,,,,,
132,ARSERU31,40.2025,7.7358,2469,SERU,TMPMAX,2021,8,,,,,,,,,,,,,,,,,,,,,,,,,,,,,,,
133,GNSHAH11,36.8737,11.9286,2205,SHAHURA,TMPMAX,2021,8,19.5,20.0,19.5,20.5,22.0,22.5,21.5,21.0,21,22.5,19.5,21.6,23.6,22.5,21.0,21.0,22.5,22.5,23.2,21.0,21.0,22.0,22.0,21.0,23.6,22.0,19.5,23.5,21.5,21.5,23.5
134,WESHAM11,37.121167,9.5712,2460,SHAMBU,TMPMAX,2021,8,20.0,19.5,19.8,21.8,20,22,19.5,20.0,21.5,22.0,20.0,21.0,21.5,23.5,21.5,18.5,21.0,21.0,20.4,20.2,19.5,20.0,20.2,17.8,21.5,21.2,19.5,23.0,22.5,21.5,23.4
135,WESHER13,35.08333,10.8,,SHERKOLE,TMPMAX,2021,8,27.2,30,28.3,29.1,,,,,,,,,,,,,,,,,,,,,,,,,,,
136,TISHIR21,37.76129,14.38859,1033,SHIRARO,TMPMAX,2021,8,,,,,,,,,,,,,,,,,,,,,,,,,,,,,,,
137,TISHIR11,38.29457,14.10172,1897,SHIRE,TMPMAX,2021,8,,,,,,,,,,,,,,,,,,,,,,,,,,,,,,,
138,SHSHOL11,39.55,9.218,2500,SHOLAGEBAYA,TMPMAX,2021,8,xx,xx,xx,xx,xx,xx,xx,xx,xx,xx,x,x,x,x,x,x,xx,xx,xx,xx,xx,xx,xx,xx,xx,xx,xx,xx,xx,xx,xx
139,SHSHEW11,39.89436,10.0127,1277,SHEWAROBIT,TMPMAX,2021,8,29.4,29.6,27.4,31.0,28.4,31,29.2,30.4,30,31.4,31.4,30.0,29.4,31.4,31.2,29.6,30.0,31.4,31.4,31.6,31.0,28.4,31.2,28.4,31.0,30.4,29.0,32.0,32.0,32.2,32.4
140,GGSAWU31,36.84125,6.304888,1348,SAWULA,TMPMAX,2021,8,25.5,24.2,30,30.5,29.0,31.5,29.5,30.5,28.0,28.6,29.0,28.5,30.2,29.8,25.2,27.8,29.0,30.0,31.2,27.5,29.5,30,31.4,27.0,31.0,29.6,32.0,31.0,25.0,31.0,31.6
141,TISAMR14,39.20444,13.18128,2071,SAMRE,TMPMAX,2021,8,,,,,,,,,,,,,,,,,,,,,,,,,,,,,,,
142,KFSEKO11,37.41667,7.916667,1928,SEKORU,TMPMAX,2021,8,24.5,21.2,24.2,24.8,24,25.1,24.4,25.0,23.0,23.6,25.0,23.0,25.4,26.2,24.2,24.6,25.8,27.2,21.2,24.0,23.8,22.6,23.0,23.8,25.4,25.4,24.8,26.8,25.8,26.2,27.2
143,WESIRB11,35.27,10.06223,,SIRBA ABAYA,TMPMAX,2021,8,,,,,,,,,,,,,,,,,,,,,,,,,,,,,,,
144,WOSIRI21,39.614281,11.750998,1861,SIRINKA,TMPMAX,2021,8,26.2,26.2,24.2,26.6,27,26.8,,,,,,,,,,,,,,,,,,,,,,,,,
145,WESOGE11,36.198733,9.3644,1394,SOGE,TMPMAX,2021,8,,,,,,,,,,,,,,,,,,,,,,,,,,,,,,,
146,ILTEPI11,35.4333,7.2,1205,TEPI,TMPMAX,2021,8,27.4,26.6,29.8,30,25.6,29.2,26.8,27.2,26.8,27.4,26.2,29.0,29.6,27.6,24.6,26.8,29.6,29.0,26.0,26.6,28.2,26.6,27.0,27.2,28.4,27.4,30.0,31.6,28.0,28.4,30.4
147,GGTERC21,37.16792,7.148722,1335,TERCHA,TMPMAX,2021,8,26.6,25.6,27.4,28.0,27.4,29,28.2,27.8,25.8,24.8,27.4,26.0,28.0,27.4,26.0,27.0,28.4,29.0,27.2,26.2,28.0,25.0,26.4,25.4,29.0,27.0,27.4,29.0,28.6,28.8,29.0
148,WOTSIT21,38.799889,12.783778,1469,TSITSIKA,TMPMAX,2021,8,,,,,,,,,,,,,,,,,,,,,,,,,,,,,,,
149,WOWEGE11,39.221215,11.590343,2952,WEGELTENA,TMPMAX,2021,8,17.0,16.5,14.8,17.5,17.0,17.5,18.0,19.2,17.0,18.0,18.0,17.5,19.0,20.0,19.0,18.2,17.2,19.0,19.5,17.5,17.0,16.5,16.5,16.0,18.5,18.5,16.5,18.5,19.5,19.5,19.0
150,SIWERA11,38.191,7.8505,2057,WERABE,TMPMAX,2021,8,22.0,21.0,21.4,23.6,22.0,24.0,23.6,25.0,23,24.0,23.6,22.0,23.4,24.0,23.4,23.0,23.4,25.0,23.4,23.0,24.0,23.0,23.2,21.0,24.2,24.0,25.0,26.0,25.4,25.0,25.2
151,WOWERE11,39.436719,10.579488,2708,WEREILU,TMPMAX,2021,8,18.0,19.2,16.0,20.0,19.8,19.5,21.0,21.5,19.0,20.0,21.0,19.0,20.5,22.0,20.5,20.4,20.0,21.6,21.5,19.0,20.2,19.5,19.7,16.6,20.5,20.2,17.5,20.0,20.5,20,21.0
152,SIWOLA11,37.73,6.81,1854,Wolaita Sodo,TMPMAX,2021,8,20.0,18.0,22.7,24.5,23.0,24.0,23.2,23.2,22.0,23.0,24.0,24.2,23.6,23.5,21.1,21.3,23.0,23.4,25.0,22.7,24.5,24.8,24.4,21.0,24.0,23.9,24.5,24.7,23.1,,15.5
153,GOYETN21,38.1083,10.2449,2420,YITNORA,TMPMAX,2021,8,18.6,19.4,16.9,19,18.5,19.5,20.5,19.4,20.7,17.9,19.5,19.0,22.5,25.5,19.3,24.9,22.4,17.2,19.5,20.0,18.7,18.6,18.6,17.8,21.0,20.5,18.5,20.6,20.4,19.6,20.3
154,SIYABE31,38.1,4.88,1729,YABELO,TMPMAX,2021,8,21.6,21.2,22.6,26.2,23.2,25.8,24.8,28.2,26.2,27.8,25.4,25.2,27.2,24.6,22.6,22.4,23.6,24.2,28.2,27.2,28.8,27.2,29.0,25.6,27.6,26.6,28.8,,,,
155,SHZIWA11,38.7,7.933333,1640,Ziway,TMPMAX,2021,8,26.2,24.6,25,28.4,25.6,28.0,25.8,29.0,27.2,25.4,26.2,24.2,25.4,26.0,25.6,25,26.0,27.4,26.4,27.4,27.6,28.0,24.4,25.6,28.0,27.8,28.2,29.0,27.2,29.0,29.4
